[{
  "id": 2,
  "name": "Belgrano",
  "street_name": "Av. Cabildo",
  "street_number": "2027",
  "street_between1": "Echeverría",
  "street_between2": "Juramento",
  "city_id": 20000,
  "city_label": "Ciudad de Buenos Aires",
  "zip_code": "C1428",
  "latitude": -34.562693359870195,
  "longitude": -58.45601654999198,
  "open_time": "Lun-Sáb: 09:00-20:30. Dom: 12:00-20:30."
}, {
  "id": 3,
  "name": "Uruguay",
  "street_name": "Uruguay",
  "street_number": "552",
  "street_between1": "Lavalle",
  "street_between2": "Tucumán",
  "city_id": 20000,
  "city_label": "Ciudad de Buenos Aires",
  "zip_code": "C1015",
  "latitude": -34.60220599263392,
  "longitude": -58.38675731201721,
  "open_time": "Lun-Vie: 08:30-20:00. Sáb: 09:30-13:30. Dom: Cerrado."
}, {
  "id": 4,
  "name": "Unicenter Shopping",
  "street_name": "Parana (80)",
  "street_number": "3745",
  "street_between1": "",
  "street_between2": "",
  "city_id": 20041,
  "city_label": "Martínez (San Isidro) , Buenos Aires",
  "zip_code": "B1640",
  "latitude": -34.510349814347414,
  "longitude": -58.52560488074453,
  "open_time": "Lun-Dom: 10:00-22:00."
}, {
  "id": 5,
  "name": "Alto Palermo Shopping",
  "street_name": "Arenales",
  "street_number": "3360",
  "street_between1": "Cnel. Díaz",
  "street_between2": "Bulnes",
  "city_id": 20000,
  "city_label": "Ciudad de Buenos Aires",
  "zip_code": "C1425",
  "latitude": -34.58768432712607,
  "longitude": -58.41043938116527,
  "open_time": "Lun-Dom: 10:00-22:00."
}, {
  "id": 6,
  "name": "Florida",
  "street_name": "Florida",
  "street_number": "260",
  "street_between1": "Tte. Gral. Juan Domingo Perón",
  "street_between2": "Sarmiento",
  "city_id": 20000,
  "city_label": "Ciudad de Buenos Aires",
  "zip_code": "C1005",
  "latitude": -34.60504404917937,
  "longitude": -58.37522726126692,
  "open_time": "Lun-Vie: 09:00-20:00. Sáb: 10:00-20:00. Dom: Cerrado."
}, {
  "id": 10,
  "name": "Portal Lomas Shopping",
  "street_name": "Av. Ant. Argentina",
  "street_number": "703",
  "street_between1": "Gral. E. Frias",
  "street_between2": "Jacinto Viera",
  "city_id": 20076,
  "city_label": "Llavallol (Lomas de Zamora) , Buenos Aires",
  "zip_code": "B1834",
  "latitude": -34.792696873220876,
  "longitude": -58.41490115088574,
  "open_time": "Lun-Dom: 10:00-22:00."
}, {
  "id": 11,
  "name": "Mendoza Shopping Guaymallén",
  "street_name": "Colectora Acceso Este",
  "street_number": "3280",
  "street_between1": "Ponce",
  "street_between2": "Houssay",
  "city_id": 20073,
  "city_label": "Villa Nueva (Guaymallén) , Mendoza",
  "zip_code": "M5519",
  "latitude": -32.90336249738514,
  "longitude": -68.79997487934402,
  "open_time": "Lun-Dom: 10:00-22:00."
}, {
  "id": 16,
  "name": "San Martín Factory",
  "street_name": "San Lorenzo (91)",
  "street_number": "3773",
  "street_between1": "Diagonal 90",
  "street_between2": "Rivero (96)",
  "city_id": 21800,
  "city_label": "Villa General Las Heras (General San Martín) , Buenos Aires",
  "zip_code": "B1650",
  "latitude": -34.5639093859156,
  "longitude": -58.55737703600924,
  "open_time": "Lun-Dom: 10:00-22:00."
}, {
  "id": 18,
  "name": "Caballito",
  "street_name": "Av. Rivadavia",
  "street_number": "5225",
  "street_between1": "Parral",
  "street_between2": "Colpayo",
  "city_id": 20000,
  "city_label": "Ciudad de Buenos Aires",
  "zip_code": "C1405",
  "latitude": -34.61950538234009,
  "longitude": -58.43935957954051,
  "open_time": "Lun-Vie: 09:00-20:30. Sáb: 09:30-20:30. Dom: 15:00-20:30."
}, {
  "id": 19,
  "name": "Santa Fe y Uriburu",
  "street_name": "Av. Santa Fe",
  "street_number": "2199",
  "street_between1": "Junín",
  "street_between2": "Pres. J. E. Uriburu",
  "city_id": 20000,
  "city_label": "Ciudad de Buenos Aires",
  "zip_code": "C1123",
  "latitude": -34.59532934870756,
  "longitude": -58.39841765279379,
  "open_time": "Lun-Vie: 09:00-20:30. Sáb: 09:30-20:30. Dom: Cerrado."
}, {
  "id": 22,
  "name": "Depósito Mendoza",
  "street_name": "Colectora Acceso Sur (Oeste)",
  "street_number": "0",
  "street_between2": "Alsina",
  "city_id": 21996,
  "city_label": "San Francisco (Godoy Cruz) , Mendoza",
  "zip_code": "M5503",
  "latitude": -32.92842484305073,
  "longitude": -68.82659826106283,
  "open_time": "Lun-Sáb: 09:00-13:00 16:30-20:00. Dom: Cerrado."
}, {
  "id": 23,
  "name": "Mendoza (Centro)",
  "street_name": "Av. Gral. San Martín",
  "street_number": "1252",
  "street_between1": "Catamarca",
  "street_between2": "J. A. Gutiérrez",
  "city_id": 20037,
  "city_label": "Mendoza (Capital) , Mendoza",
  "zip_code": "M5500",
  "latitude": -32.88906771871096,
  "longitude": -68.83905143407786,
  "open_time": "Lun-Vie: 09:00-13:00 16:30-21:00. Sáb: 09:00-21:00. Dom: Cerrado."
}, {
  "id": 25,
  "name": "Sta. Fe y Coronel Díaz",
  "street_name": "Av. Santa Fe",
  "street_number": "3211",
  "street_between1": "Cnel. Díaz",
  "street_between2": "Anasagasti",
  "city_id": 20000,
  "city_label": "Ciudad de Buenos Aires",
  "zip_code": "C1425",
  "latitude": -34.58888773487152,
  "longitude": -58.41019012957278,
  "open_time": "Lun-Vie: 09:00-21:00. Sáb: 10:00-21:00. Dom: 12:00-20:00."
}, {
  "id": 27,
  "name": "San Miguel",
  "street_name": "Av. R. Balbin - Ruta Provincial Nº23 - Av. Rivadavia",
  "street_number": "1198",
  "street_between1": "Pte. Juan D. Peron",
  "street_between2": "Paunero",
  "city_id": 20013,
  "city_label": "San Miguel , Buenos Aires",
  "zip_code": "B1663",
  "latitude": -34.54149679119178,
  "longitude": -58.71140477315912,
  "open_time": "Lun-Vie: 09:00-20:30. Sáb: 09:00-21:00. Dom: 10:00-20:00."
}, {
  "id": 28,
  "name": "Quilmes - Peatonal Rivadavia",
  "street_name": "Rivadavia (13)",
  "street_number": "170",
  "street_between1": "Moreno (53) (460)",
  "street_between2": "Lavalle (54) (459)",
  "city_id": 20017,
  "city_label": "Quilmes , Buenos Aires",
  "zip_code": "B1878",
  "latitude": -34.72236503193917,
  "longitude": -58.257834422820906,
  "open_time": "Lun-Vie: 09:00-20:30. Sáb: 09:30-20:30. Dom: Cerrado."
}, {
  "id": 29,
  "name": "Morón",
  "street_name": "Rivadavia",
  "street_number": "18301",
  "street_between1": "Gral. M. Belgrano",
  "street_between2": "Gral. J. De San Martin",
  "city_id": 20025,
  "city_label": "Morón , Buenos Aires",
  "zip_code": "B1708",
  "latitude": -34.64922905113415,
  "longitude": -58.622593590199926,
  "open_time": "Lun-Vie: 09:00-20:30. Sáb: 09:30-20:30. Dom: Cerrado."
}, {
  "id": 30,
  "name": "Once",
  "street_name": "Av. Pueyrredón",
  "street_number": "350",
  "street_between1": "Sarmiento",
  "street_between2": "Valentín Gómez",
  "city_id": 20000,
  "city_label": "Ciudad de Buenos Aires",
  "zip_code": "C1032",
  "latitude": -34.606055239596,
  "longitude": -58.40591952406197,
  "open_time": "Lun-Vie: 09:00-20:00. Sáb: 09:30-20:00. Dom: Cerrado."
}, {
  "id": 31,
  "name": "Alto Avellaneda Shopping Mall",
  "street_name": "Av. Gral. Guemes",
  "street_number": "897",
  "street_between1": "Gral. Mansilla",
  "street_between2": "Gral. Arredondo",
  "city_id": 20157,
  "city_label": "Crucecita (Avellaneda) , Buenos Aires",
  "zip_code": "B1872",
  "latitude": -34.677419421020666,
  "longitude": -58.36644093439029,
  "open_time": "Lun-Dom: 10:00-22:00."
}, {
  "id": 32,
  "name": "Plaza Oeste Shopping",
  "street_name": "Brig. Gral. Juan Manuel De Rosas",
  "street_number": "",
  "street_between1": "",
  "street_between2": "",
  "city_id": 20022,
  "city_label": "Castelar (Morón) , Buenos Aires",
  "zip_code": "B1712",
  "latitude": -34.633993789861755,
  "longitude": -58.62889993501538,
  "open_time": "Lun-Dom: 10:00-22:00."
}, {
  "id": 2080,
  "name": "La Banda Mixta",
  "street_name": "España",
  "street_number": "247",
  "street_between1": "Sarmiento",
  "street_between2": "Rivadavia",
  "city_id": 20166,
  "city_label": "La Banda (Banda) , Santiago del Estero",
  "zip_code": "G4300",
  "latitude": -27.729571072001843,
  "longitude": -64.2397745568267,
  "open_time": "Lun-Vie: 08:30-12:30 17:30-21:30. Sáb: 09:00-13:00 17:00-21:00. Dom: Cerrado."
}, {
  "id": 33,
  "name": "Flores",
  "street_name": "Av. Rivadavia",
  "street_number": "6556",
  "street_between1": "Fray Luis Beltrán",
  "street_between2": "Camacuá",
  "city_id": 20000,
  "city_label": "Ciudad de Buenos Aires",
  "zip_code": "C1406",
  "latitude": -34.62742744262679,
  "longitude": -58.458357664051775,
  "open_time": "Lun-Vie: 09:00-20:30. Sáb: 09:30-20:30. Dom: 15:30-20:30."
}, {
  "id": 34,
  "name": "Neuquen - Calle Olascoaga",
  "street_name": "Amancio Alcorta",
  "street_number": "44",
  "street_between1": "",
  "street_between2": "",
  "city_id": 20012,
  "city_label": "Neuquén (Confluencia) , Neuquén",
  "zip_code": "Q8300",
  "latitude": -38.958269138620345,
  "longitude": -68.06006119517518,
  "open_time": "Lun-Sáb: 09:00-21:00. Dom: Cerrado."
}, {
  "id": 35,
  "name": "San Justo",
  "street_name": "Dr. Ignacio Arieta",
  "street_number": "3155",
  "street_between1": "Pte. Hipolito Yrigoyen",
  "street_between2": "Peru",
  "city_id": 20021,
  "city_label": "San Justo (La Matanza) , Buenos Aires",
  "zip_code": "B1754",
  "latitude": -34.67887465420466,
  "longitude": -58.56033337087363,
  "open_time": "Lun-Vie: 09:00-20:30. Sáb: 09:30-20:30. Dom: Cerrado."
}, {
  "id": 36,
  "name": "Cordoba - Peatonal R. Indarte",
  "street_name": "Rivera Indarte",
  "street_number": "171",
  "street_between1": "9 De Julio",
  "street_between2": "Colón",
  "city_id": 20002,
  "city_label": "Córdoba (Capital) , Córdoba",
  "zip_code": "X5000",
  "latitude": -31.41365255994672,
  "longitude": -64.18437728392747,
  "open_time": "Lun-Vie: 09:00-20:30. Sáb: 09:00-18:00. Dom: Cerrado."
}, {
  "id": 37,
  "name": "Tucumán - Peatonal Muñecas",
  "street_name": "Muñecas",
  "street_number": "64",
  "street_between1": "Buenos Aires",
  "street_between2": "San Martín",
  "city_id": 20004,
  "city_label": "San Miguel de Tucumán (Capital) , Tucumán",
  "zip_code": "T4000",
  "latitude": -26.829882512646158,
  "longitude": -65.2061628549456,
  "open_time": "Lun-Vie: 08:30-13:00 17:30-21:00. Sáb: 09:00-13:00 17:00-21:00. Dom: Cerrado."
}, {
  "id": 38,
  "name": "Lomas - Calle Laprida",
  "street_name": "F. N. De Laprida",
  "street_number": "394",
  "street_between1": "Italia",
  "street_between2": "F. N. De Laprida",
  "city_id": 20016,
  "city_label": "Lomas de Zamora , Buenos Aires",
  "zip_code": "B1832",
  "latitude": -34.7604609014316,
  "longitude": -58.40105686478527,
  "open_time": "Lun-Vie: 09:00-20:30. Sáb: 09:30-20:30. Dom: Cerrado."
}, {
  "id": 39,
  "name": "Rosario - Peatonal Cordoba",
  "street_name": "Córdoba",
  "street_number": "1235",
  "street_between1": "Mitre",
  "street_between2": "Entre Ríos",
  "city_id": 20001,
  "city_label": "Rosario , Santa Fé",
  "zip_code": "S2000",
  "latitude": -32.94617708292228,
  "longitude": -60.640012864921566,
  "open_time": "Lun-Vie: 09:00-20:30. Sáb: 09:00-20:00. Dom: Cerrado."
}, {
  "id": 40,
  "name": "Salta - Peatonal Alberdi",
  "street_name": "Juan B. Alberdi",
  "street_number": "163",
  "street_between1": "Alvarado",
  "street_between2": "Urquiza",
  "city_id": 20007,
  "city_label": "Salta (Capital) , Salta",
  "zip_code": "A4400",
  "latitude": -24.791874393599358,
  "longitude": -65.41115230552032,
  "open_time": "Lun-Sáb: 09:00-13:00 17:00-21:00. Dom: Cerrado."
}, {
  "id": 41,
  "name": "Depósito Córdoba",
  "street_name": "Av. Vélez Sarsfield",
  "street_number": "6200",
  "street_between2": "Virgen De Fátima",
  "city_id": 20002,
  "city_label": "Córdoba (Capital) , Córdoba",
  "zip_code": "X5000",
  "latitude": -31.48579061985415,
  "longitude": -64.20466692327288,
  "open_time": "Lun-Vie: 09:00-18:00. Sáb: 09:00-13:00. Dom: Cerrado."
}, {
  "id": 43,
  "name": "La Plata - Calle 47",
  "street_name": "Calle 47",
  "street_number": "628",
  "street_between1": "7",
  "street_between2": "8",
  "city_id": 20008,
  "city_label": "La Plata , Buenos Aires",
  "zip_code": "B1900",
  "latitude": -34.913428581963146,
  "longitude": -57.952658655396775,
  "open_time": "Lun-Vie: 09:00-20:30. Sáb: 09:30-20:30. Dom: Cerrado."
}, {
  "id": 44,
  "name": "Pompeya",
  "street_name": "Av. Sáenz",
  "street_number": "1045",
  "street_between1": "Abraham J. Luppi",
  "street_between2": "Esquiú",
  "city_id": 20000,
  "city_label": "Ciudad de Buenos Aires",
  "zip_code": "C1437",
  "latitude": -34.65136259767042,
  "longitude": -58.41661731904201,
  "open_time": "Lun-Vie: 09:00-20:00. Sáb: 09:30-20:00. Dom: Cerrado."
}, {
  "id": 47,
  "name": "Bahía Blanca",
  "street_name": "O´higgings",
  "street_number": "35",
  "street_between1": "Chiclana",
  "street_between2": "Luis María Drago",
  "city_id": 20005,
  "city_label": "Bahía Blanca , Buenos Aires",
  "zip_code": "B8000",
  "latitude": -38.71965491057979,
  "longitude": -62.26611395743394,
  "open_time": "Lun-Sáb: 09:00-20:30. Dom: Cerrado."
}, {
  "id": 48,
  "name": "Depósito Neuquén",
  "street_name": "Tte. Gral. Pablo Ricchieri",
  "street_number": "1736",
  "street_between1": "Chos Malal",
  "street_between2": "Cerro Tronador",
  "city_id": 20012,
  "city_label": "Neuquén (Confluencia) , Neuquén",
  "zip_code": "Q8300",
  "latitude": -38.96259813938833,
  "longitude": -68.03541930396263,
  "open_time": "Lun-Vie: 09:00-20:00. Sáb: 09:00-12:00. Dom: Cerrado."
}, {
  "id": 49,
  "name": "Depósito Rosario",
  "street_name": "Av las Palmeras",
  "street_number": "1500",
  "city_id": 20001,
  "city_label": "Rosario , Santa Fé",
  "zip_code": "S2000",
  "latitude": -32.990476,
  "longitude": -60.733914,
  "open_time": "Lun-Vie: 10:00-20:00. Sáb: 08:00-13:00. Dom: Cerrado."
}, {
  "id": 2100,
  "name": "Salta Mixta Hiper Libertad",
  "street_name": "Av. Mñor. Tavella",
  "street_number": "0",
  "city_id": 20007,
  "city_label": "Salta (Capital) , Salta",
  "zip_code": "A4400",
  "latitude": -24.829704857863415,
  "longitude": -65.4302962934089,
  "open_time": "Lun-Dom: 10:00-22:00."
}, {
  "id": 52,
  "name": "San Francisco Solano",
  "street_name": "Jose Andres Lopez (844)",
  "street_number": "2575",
  "street_between1": "897",
  "street_between2": "Madre Teresa De Calcuta, (898)",
  "city_id": 20100,
  "city_label": "San Francisco Solano (Quilmes) , Buenos Aires",
  "zip_code": "B1881",
  "latitude": -34.78122860835367,
  "longitude": -58.313494620357304,
  "open_time": "Lun-Vie: 09:00-20:30. Sáb: 09:30-20:30. Dom: Cerrado."
}, {
  "id": 54,
  "name": "Rio Gallegos",
  "street_name": "Av. Pres. Julio Argentino Roca Oest",
  "street_number": "180",
  "street_between1": "España",
  "street_between2": "Bernardino Rivadavia",
  "city_id": 20044,
  "city_label": "Río Gallegos (Ger Aike) , Santa Cruz",
  "zip_code": "Z9400",
  "latitude": -51.620789900389866,
  "longitude": -69.2168710535806,
  "open_time": "Lun-Sáb: 09:00-12:30 15:30-20:00. Dom: Cerrado."
}, {
  "id": 55,
  "name": "Depósito Salta",
  "street_name": "Necochea",
  "street_number": "1632",
  "street_between1": "Ibazeta",
  "street_between2": "Maipú",
  "city_id": 20007,
  "city_label": "Salta (Capital) , Salta",
  "zip_code": "A4400",
  "latitude": -24.777628034817425,
  "longitude": -65.42418552821174,
  "open_time": "Lun-Vie: 08:00-12:00 16:00-20:00. Sáb: 08:00-13:00. Dom: Cerrado."
}, {
  "id": 56,
  "name": "Depósito Tucumán",
  "street_name": "Ruta Nacional 9",
  "street_number": "1285",
  "city_id": 20203,
  "city_label": "Banda del Río Salí (Cruz Alta) , Tucumán",
  "zip_code": "T4109",
  "latitude": -26.877721,
  "longitude": -65.166863,
  "open_time": "Lun-Vie: 08:00-17:00. Sáb: 08:00-13:00. Dom: Cerrado."
}, {
  "id": 57,
  "name": "Depósito Bahia Blanca",
  "street_name": "Río Atuel",
  "street_number": "258",
  "street_between1": "Rondeau",
  "street_between2": "Gorriti",
  "city_id": 20005,
  "city_label": "Bahía Blanca , Buenos Aires",
  "zip_code": "B8000",
  "latitude": -38.734760376796245,
  "longitude": -62.292372845698615,
  "open_time": "Lun-Vie: 08:00-12:30 15:30-18:00. Sáb: 07:00-13:00. Dom: Cerrado."
}, {
  "id": 58,
  "name": "Portal Escobar Shopping",
  "street_name": "Av. D. F. Sarmiento",
  "street_number": "",
  "street_between1": "",
  "street_between2": "",
  "city_id": 20064,
  "city_label": "Belén de Escobar (Escobar) , Buenos Aires",
  "zip_code": "B1625",
  "latitude": -34.3587109524986,
  "longitude": -58.799546952105324,
  "open_time": "Lun-Sáb: 10:00-21:30. Dom: 10:00-21:00."
}, {
  "id": 60,
  "name": "Mar del Plata - Calle Rivadavia",
  "street_name": "Rivadavia",
  "street_number": "3045",
  "street_between1": "La Rioja",
  "street_between2": "Catamarca",
  "city_id": 20003,
  "city_label": "Mar del Plata (General Pueyrredón) , Buenos Aires",
  "zip_code": "B7600",
  "latitude": -37.9979560876719,
  "longitude": -57.55186117862056,
  "open_time": "Lun-Sáb: 09:00-21:00. Dom: 12:00-21:00."
}, {
  "id": 62,
  "name": "Corrientes Peatonal Junin",
  "street_name": "Junín",
  "street_number": "1247",
  "street_between1": "Mendoza",
  "street_between2": "Córdoba",
  "city_id": 20028,
  "city_label": "Corrientes (Capital) , Corrientes",
  "zip_code": "W3400",
  "latitude": -27.467647621589165,
  "longitude": -58.835074652152294,
  "open_time": "Lun-Vie: 08:00-12:30 17:00-21:00. Sáb: 09:00-13:00 17:00-21:00. Dom: Cerrado."
}, {
  "id": 63,
  "name": "Santa Fe - Peatonal San Martín",
  "street_name": "San Martín",
  "street_number": "2325",
  "city_id": 20011,
  "city_label": "Santa Fe (Capital) , Santa Fé",
  "zip_code": "S3000",
  "latitude": -31.648744,
  "longitude": -60.707506,
  "open_time": "Lun-Vie: 08:30-13:00 16:30-21:00. Sáb: 09:00-13:00 17:00-21:00. Dom: Cerrado."
}, {
  "id": 64,
  "name": "Liniers",
  "street_name": "Av. Rivadavia",
  "street_number": "11502",
  "street_between1": "Carhué",
  "street_between2": "Montiel",
  "city_id": 20000,
  "city_label": "Ciudad de Buenos Aires",
  "zip_code": "C1408",
  "latitude": -34.639131303992535,
  "longitude": -58.52518231891415,
  "open_time": "Lun-Vie: 09:00-20:00. Sáb: 09:30-20:00. Dom: Cerrado."
}, {
  "id": 65,
  "name": "Neuquen Portal de la Patagonia",
  "street_name": "Juan J. Lastra",
  "street_number": "2400",
  "street_between1": "Cornelio Saavedra",
  "street_between2": "Chaco",
  "city_id": 20012,
  "city_label": "Neuquén (Confluencia) , Neuquén",
  "zip_code": "Q8300",
  "latitude": -38.95935471533434,
  "longitude": -68.09407679348914,
  "open_time": "Lun-Dom: 10:00-22:00."
}, {
  "id": 66,
  "name": "Depósito Mar del Plata",
  "street_name": "Av. Colón",
  "street_number": "5993",
  "street_between1": "Malvinas",
  "street_between2": "Juncal",
  "city_id": 20003,
  "city_label": "Mar del Plata (General Pueyrredón) , Buenos Aires",
  "zip_code": "B7600",
  "latitude": -37.98617575577917,
  "longitude": -57.58430532749574,
  "open_time": "Lun-Vie: 10:00-20:00. Sáb: 10:00-18:00. Dom: Cerrado."
}, {
  "id": 68,
  "name": "Depósito Santa Fé",
  "street_name": "Pedro De Vega",
  "street_number": "1861",
  "street_between1": "Gral. Necochea",
  "street_between2": "M. Candioti",
  "city_id": 20011,
  "city_label": "Santa Fe (Capital) , Santa Fé",
  "zip_code": "S3000",
  "latitude": -31.61279030821189,
  "longitude": -60.687837973970154,
  "open_time": "Lun-Sáb: 09:00-12:00 17:00-20:00. Dom: Cerrado."
}, {
  "id": 69,
  "name": "Villa del Parque",
  "street_name": "Cuenca",
  "street_number": "3190",
  "street_between1": "Pedro Lozano",
  "street_between2": "Tinogasta",
  "city_id": 20000,
  "city_label": "Ciudad de Buenos Aires",
  "zip_code": "C1417",
  "latitude": -34.60073847017784,
  "longitude": -58.495870866331735,
  "open_time": "Lun-Vie: 09:00-20:30. Sáb: 09:30-20:30. Dom: 15:00-20:00."
}, {
  "id": 70,
  "name": "Chaco Peatonal Illia",
  "street_name": "Juan Domingo Perón",
  "street_number": "146",
  "street_between1": "Santa María De Oro",
  "street_between2": "Vedia",
  "city_id": 20020,
  "city_label": "Resistencia (San Fernando) , Chaco",
  "zip_code": "H3500",
  "latitude": -27.451544947636773,
  "longitude": -58.989470369206565,
  "open_time": "Lun-Vie: 08:00-12:30 17:00-21:00. Sáb: 09:00-13:00 17:00-21:00. Dom: Cerrado."
}, {
  "id": 71,
  "name": "Depósito Chaco",
  "street_name": "Ruta 11 Km 1001",
  "street_between1": "Tatú Carreta",
  "street_between2": "Yaguareté",
  "city_id": 20020,
  "city_label": "Resistencia (San Fernando) , Chaco",
  "zip_code": "H3500",
  "latitude": -27.461666,
  "longitude": -59.040075,
  "open_time": "Lun-Vie: 08:00-12:30 17:00-19:30. Sáb: 08:00-12:00. Dom: Cerrado."
}, {
  "id": 2120,
  "name": "San Juan Hiper Libertad",
  "street_name": "Raúl Scalabrini Ortiz",
  "street_number": "1100",
  "street_between1": "San Lorenzo Oeste",
  "street_between2": "Sgto. Cabral",
  "city_id": 20058,
  "city_label": "San Juan (Capital) , San Juan",
  "zip_code": "J5400",
  "latitude": -31.519553952798205,
  "longitude": -68.54343421812065,
  "open_time": "Lun-Dom: 10:00-22:00."
}, {
  "id": 73,
  "name": "Comodoro Rivadavia",
  "street_name": "25 De Mayo",
  "street_number": "883",
  "street_between1": "Av. Rivadavia",
  "street_between2": "Gral. San Martín",
  "city_id": 20014,
  "city_label": "Comodoro Rivadavia (Escalante) , Chubut",
  "zip_code": "U9000",
  "latitude": -45.861189330811925,
  "longitude": -67.48159384201234,
  "open_time": "Lun-Sáb: 09:00-21:00. Dom: 16:00-21:00."
}, {
  "id": 75,
  "name": "San Juan - Peatonal Rivadavia",
  "street_name": "Bernardino Rivadavia Este",
  "street_number": "183",
  "street_between1": "Gral. Mariano Acha Sur",
  "street_between2": "Tucumán Sur",
  "city_id": 20058,
  "city_label": "San Juan (Capital) , San Juan",
  "zip_code": "J5400",
  "latitude": -31.536487832794833,
  "longitude": -68.52343344198084,
  "open_time": "Lun-Sáb: 09:00-13:00 17:00-21:00. Dom: Cerrado."
}, {
  "id": 76,
  "name": "Depósito San Juan",
  "street_name": "Av. Circunvalacion - Este -",
  "street_number": "1597",
  "city_id": 20151,
  "city_label": "Santa Lucía , San Juan",
  "zip_code": "J5411",
  "latitude": -31.519653800518682,
  "longitude": -68.50575935658296,
  "open_time": "Lun-Sáb: 09:00-12:30 17:00-19:00. Dom: Cerrado."
}, {
  "id": 77,
  "name": "Lanus",
  "street_name": "Av. 9 De Julio",
  "street_number": "1243",
  "street_between1": "Anatole France",
  "street_between2": "Gral. O'higgins",
  "city_id": 20009,
  "city_label": "Lanús , Buenos Aires",
  "zip_code": "B1824",
  "latitude": -34.70891327465945,
  "longitude": -58.38899031900294,
  "open_time": "Lun-Vie: 09:00-20:00. Sáb: 09:30-20:00. Dom: Cerrado."
}, {
  "id": 78,
  "name": "Las Palmas del Pilar Shopping",
  "street_name": "Las Magnolias",
  "street_number": "",
  "street_between1": "Los Quebrachos",
  "street_between2": "Los Almendros",
  "city_id": 20010,
  "city_label": "Pilar , Buenos Aires",
  "zip_code": "B1629",
  "latitude": -34.447365107419344,
  "longitude": -58.86974391629104,
  "open_time": "Lun-Jue: 10:00-21:00. Vie y Sáb: 10:00-22:00. Dom: 10:00-21:00."
}, {
  "id": 79,
  "name": "Mendoza Portal de los Andes",
  "street_name": "Balcarce",
  "street_number": "897",
  "street_between1": "",
  "street_between2": "",
  "city_id": 20039,
  "city_label": "Godoy Cruz , Mendoza",
  "zip_code": "M5501",
  "latitude": -32.916253940326186,
  "longitude": -68.84014213007848,
  "open_time": "Lun-Vie: 10:00-21:00. Sáb y Dom: 10:00-21:30."
}, {
  "id": 80,
  "name": "Parana  - Peatonal San Martin",
  "street_name": "Gral. José De San Martín",
  "street_number": "813",
  "street_between1": "25 De Junio",
  "street_between2": "Gral. Justo José De Urquiza",
  "city_id": 20018,
  "city_label": "Paraná , Entre Ríos",
  "zip_code": "E3100",
  "latitude": -31.731567252330603,
  "longitude": -60.529516216626966,
  "open_time": "Lun-Vie: 08:30-13:00 16:00-20:30. Sáb: 09:00-13:00 16:00-20:30. Dom: Cerrado."
}, {
  "id": 82,
  "name": "Rosario Portal Shopping",
  "street_name": "Nansen",
  "street_number": "321",
  "street_between1": "Mazzini",
  "street_between2": "Mercante",
  "city_id": 20001,
  "city_label": "Rosario , Santa Fé",
  "zip_code": "S2000",
  "latitude": -32.90906779616387,
  "longitude": -60.6832717434844,
  "open_time": "Lun-Dom: 10:00-22:00."
}, {
  "id": 83,
  "name": "Garbarino Digital Mixta",
  "street_name": "Parana (80)",
  "street_number": "3745",
  "street_between1": "",
  "street_between2": "",
  "city_id": 20041,
  "city_label": "Martínez (San Isidro) , Buenos Aires",
  "zip_code": "B1640",
  "latitude": -34.510349814347414,
  "longitude": -58.52560488074453,
  "open_time": "Lun-Dom: 10:00-22:00."
}, {
  "id": 86,
  "name": "Quilmes Factory",
  "street_name": "Calchaquí",
  "street_number": "",
  "street_between1": "",
  "street_between2": "",
  "city_id": 20017,
  "city_label": "Quilmes , Buenos Aires",
  "zip_code": "B1879",
  "latitude": -34.75916827526673,
  "longitude": -58.278721942768556,
  "open_time": "Lun-Dom: 10:00-22:00."
}, {
  "id": 89,
  "name": "Salta Altos Shopping",
  "street_name": "Av. Virrey Toledo",
  "street_number": "702",
  "street_between1": "A. Cornejo",
  "street_between2": "Alsina",
  "city_id": 20007,
  "city_label": "Salta (Capital) , Salta",
  "zip_code": "A4400",
  "latitude": -24.781501294501545,
  "longitude": -65.40329979907031,
  "open_time": "Lun-Dom: 10:00-22:00."
}, {
  "id": 91,
  "name": "Outlet Mataderos",
  "street_name": "Juan B. Primoli",
  "street_number": "7485",
  "street_between1": "Saladillo",
  "street_between2": "Av. Gral. Paz",
  "city_id": 20000,
  "city_label": "Ciudad de Buenos Aires",
  "zip_code": "C1440",
  "latitude": -34.663005,
  "longitude": -58.515948,
  "open_time": "Lun-Dom: 10:00-19:00."
}, {
  "id": 2140,
  "name": "Concordia Mixta",
  "street_name": "Entre Rios",
  "street_number": "769",
  "street_between1": "Catamarca",
  "street_between2": "Corrientes",
  "city_id": 20239,
  "city_label": "Concordia , Entre Ríos",
  "zip_code": "E3200",
  "latitude": -31.39460471260215,
  "longitude": -58.01808901290212,
  "open_time": "Lun-Vie: 08:30-12:30 16:30-20:30. Sáb: 09:00-13:00 16:30-20:30. Dom: Cerrado."
}, {
  "id": 92,
  "name": "Puerto Madryn",
  "street_name": "28 De Julio",
  "street_number": "201",
  "street_between1": "Bartolomé Mitre",
  "street_between2": "Marcos A. Zar",
  "city_id": 20066,
  "city_label": "Puerto Madryn (Biedma) , Chubut",
  "zip_code": "U9120",
  "latitude": -42.766630907437005,
  "longitude": -65.0365952827428,
  "open_time": "Lun-Sáb: 09:00-13:00 16:30-20:30. Dom: Cerrado."
}, {
  "id": 93,
  "name": "Merlo",
  "street_name": "Av. Del Libertador",
  "street_number": "521",
  "street_between1": "Riobamba",
  "street_between2": "Maipu",
  "city_id": 20023,
  "city_label": "Merlo , Buenos Aires",
  "zip_code": "B1722",
  "latitude": -34.66788758889751,
  "longitude": -58.72638346382919,
  "open_time": "Lun-Vie: 09:00-20:30. Sáb: 09:30-20:30. Dom: Cerrado."
}, {
  "id": 97,
  "name": "Abasto Shopping",
  "street_name": "Av. Corrientes",
  "street_number": "3247",
  "street_between1": "Dr. Tomás Manuel De Anchorena",
  "street_between2": "Agüero",
  "city_id": 20000,
  "city_label": "Ciudad de Buenos Aires",
  "zip_code": "C1193",
  "latitude": -34.60398201584148,
  "longitude": -58.4110043372846,
  "open_time": "Lun-Dom: 10:00-22:00."
}, {
  "id": 98,
  "name": "Laferrere",
  "street_name": "Luro",
  "street_number": "6010",
  "street_between1": "",
  "street_between2": "",
  "city_id": 20015,
  "city_label": "Gregorio de Laferrere (La Matanza) , Buenos Aires",
  "zip_code": "B1757",
  "latitude": -34.74735553956619,
  "longitude": -58.59011625752396,
  "open_time": "Lun-Vie: 09:00-20:30. Sáb: 09:30-21:00. Dom: Cerrado."
}, {
  "id": 105,
  "name": "Depósito Paraná",
  "street_name": "Av. Almafuerte",
  "street_number": "2065",
  "street_between1": "Gdor. Ramón Febre",
  "city_id": 20018,
  "city_label": "Paraná , Entre Ríos",
  "zip_code": "E3100",
  "latitude": -31.756805220697895,
  "longitude": -60.49262384941634,
  "open_time": "Lun-Vie: 16:00-20:30. Sáb: 16:30-20:30. Dom: Cerrado."
}, {
  "id": 109,
  "name": "San Luis - Peatonal Rivadavia",
  "street_name": "Rivadavia",
  "street_number": "599",
  "street_between1": "Ayacucho",
  "street_between2": "Belgrano",
  "city_id": 20033,
  "city_label": "San Luis (Capital) , San Luis",
  "zip_code": "D5700",
  "latitude": -33.3040734055262,
  "longitude": -66.33569762244012,
  "open_time": "Lun-Vie: 08:30-13:00 17:00-21:00. Sáb: 09:00-14:00 16:30-21:00. Dom: Cerrado."
}, {
  "id": 2160,
  "name": "Campana Mixta",
  "street_name": "Av. Rocca",
  "street_number": "200",
  "street_between1": "Dr. Luis De Dominicis",
  "street_between2": "25 De Mayo",
  "city_id": 20106,
  "city_label": "Campana , Buenos Aires",
  "zip_code": "B2804",
  "latitude": -34.16164144659963,
  "longitude": -58.95877824776841,
  "open_time": "Lun-Sáb: 09:00-13:00 16:30-20:30. Dom: Cerrado."
}, {
  "id": 114,
  "name": "Monte Grande",
  "street_name": "L. N. Alem",
  "street_number": "299",
  "street_between1": "A. Rojas",
  "street_between2": "F. Ameghino",
  "city_id": 20019,
  "city_label": "Monte Grande (Esteban Echeverría) , Buenos Aires",
  "zip_code": "B1842",
  "latitude": -34.817346553149946,
  "longitude": -58.46770132604268,
  "open_time": "Lun-Vie: 09:00-20:30. Sáb: 09:30-20:30. Dom: Cerrado."
}, {
  "id": 118,
  "name": "Parque Brown Factory Outlet",
  "street_name": "Av. Fernández De La Cruz",
  "street_number": "",
  "street_between1": "",
  "street_between2": "",
  "city_id": 20000,
  "city_label": "Ciudad de Buenos Aires",
  "zip_code": "C1000",
  "latitude": -34.6740072738319,
  "longitude": -58.46062060257308,
  "open_time": "Lun-Dom: 10:00-22:00."
}, {
  "id": 119,
  "name": "Jujuy",
  "street_name": "Gral. Belgrano",
  "street_number": "855",
  "street_between1": "Necochea",
  "street_between2": "Balcarce",
  "city_id": 20042,
  "city_label": "San Salvador de Jujuy (Capital) , Jujuy",
  "zip_code": "Y4600",
  "latitude": -24.185343658959678,
  "longitude": -65.304930698156,
  "open_time": "Lun-Vie: 08:30-13:00 17:00-21:00. Sáb: 09:00-13:00 17:00-21:00. Dom: Cerrado."
}, {
  "id": 120,
  "name": "Santiago del Estero",
  "street_name": "Tucumán",
  "street_number": "236",
  "street_between1": "Salta",
  "street_between2": "Jujuy",
  "city_id": 20034,
  "city_label": "Santiago del Estero (Capital) , Santiago del Estero",
  "zip_code": "G4200",
  "latitude": -27.784419455155945,
  "longitude": -64.26186580316109,
  "open_time": "Lun-Vie: 08:30-12:30 17:30-21:30. Sáb: 09:00-13:00 17:30-21:30. Dom: Cerrado."
}, {
  "id": 121,
  "name": "Cordoba Nuevo Centro Shopping",
  "street_name": "Av. Duarte Quirós",
  "street_number": "1400",
  "street_between1": "Manuel De La Lastra",
  "street_between2": "La Pampa",
  "city_id": 20002,
  "city_label": "Córdoba (Capital) , Córdoba",
  "zip_code": "X5000",
  "latitude": -31.41321075513289,
  "longitude": -64.20403309494381,
  "open_time": "Lun-Dom: 10:00-22:00."
}, {
  "id": 122,
  "name": "Pergamino",
  "street_name": "San Nicolás",
  "street_number": "602",
  "street_between1": "Bartolomé Mitre",
  "street_between2": "San Martín",
  "city_id": 20072,
  "city_label": "Pergamino , Buenos Aires",
  "zip_code": "B2700",
  "latitude": -33.89480724840827,
  "longitude": -60.57313109347986,
  "open_time": "Lun-Vie: 08:30-12:30 16:30-20:30. Sáb: 09:00-13:00 16:30-20:30. Dom: Cerrado."
}, {
  "id": 126,
  "name": "Tucuman Portal Shopping",
  "street_name": "Cariola",
  "street_number": "42",
  "street_between1": "Alfredo Guzmán",
  "street_between2": "Venus",
  "city_id": 20356,
  "city_label": "Villa Marcos Paz (Yerba Buena) , Tucumán",
  "zip_code": "T4107",
  "latitude": -26.82097881252647,
  "longitude": -65.26612471108173,
  "open_time": "Lun-Dom: 10:00-22:00."
}, {
  "id": 128,
  "name": "San Martin - Peatonal Belgrano",
  "street_name": "Belgrano (52)",
  "street_number": "3625",
  "street_between1": "Bonifacini (85)",
  "street_between2": "Int. A. M. Campos, (89)",
  "city_id": 20031,
  "city_label": "General San Martín , Buenos Aires",
  "zip_code": "B1650",
  "latitude": -34.57719040431829,
  "longitude": -58.53632619659929,
  "open_time": "Lun-Vie: 09:00-20:00. Sáb: 09:30-20:00. Dom: Cerrado."
}, {
  "id": 129,
  "name": "Junin",
  "street_name": "Av. R. Sáenz Peña",
  "street_number": "238",
  "street_between1": "Carlos Pellegrini",
  "street_between2": "25 De Mayo",
  "city_id": 20075,
  "city_label": "Junín , Buenos Aires",
  "zip_code": "B6000",
  "latitude": -34.58891975898043,
  "longitude": -60.947636676192516,
  "open_time": "Lun-Vie: 08:00-12:30 16:30-21:00. Sáb: 08:30-13:00 16:30-21:00. Dom: Cerrado."
}, {
  "id": 130,
  "name": "Rio Cuarto Centro",
  "street_name": "Rivadavia",
  "street_number": "43",
  "street_between1": "Colón",
  "street_between2": "Gral. Paz",
  "city_id": 20049,
  "city_label": "Río Cuarto , Córdoba",
  "zip_code": "X5800",
  "latitude": -33.12524477657324,
  "longitude": -64.34836024323413,
  "open_time": "Lun-Vie: 08:30-13:00 16:30-21:00. Sáb: 09:00-13:00 16:30-21:00. Dom: Cerrado."
}, {
  "id": 131,
  "name": "Florencio Varela",
  "street_name": "B. De Monteagudo (203)",
  "street_number": "3083",
  "street_between1": "San Juan (220)",
  "street_between2": "Dr. S. Sallares, (222)",
  "city_id": 21746,
  "city_label": "Gobernador Monteverde (Florencio Varela) , Buenos Aires",
  "zip_code": "B1888",
  "latitude": -34.807700316528766,
  "longitude": -58.27456332795608,
  "open_time": "Lun-Vie: 09:00-20:30. Sáb: 09:30-20:30. Dom: Cerrado."
}, {
  "id": 132,
  "name": "San Nicolas",
  "street_name": "Mitre",
  "street_number": "202",
  "street_between1": "Urquiza",
  "street_between2": "9 De Julio",
  "city_id": 20063,
  "city_label": "San Nicolás de los Arroyos (San Nicolás) , Buenos Aires",
  "zip_code": "B2900",
  "latitude": -33.33058844654458,
  "longitude": -60.21874045426822,
  "open_time": "Lun-Sáb: 09:00-13:00 17:00-21:00. Dom: Cerrado."
}, {
  "id": 134,
  "name": "La Rioja Shopping",
  "street_name": "Av. Laprida",
  "street_number": "488",
  "street_between1": "Viamonte",
  "street_between2": "Artigas",
  "city_id": 20048,
  "city_label": "La Rioja (Capital) , La Rioja",
  "zip_code": "F5300",
  "latitude": -29.429554569359052,
  "longitude": -66.85298889066533,
  "open_time": "Lun-Dom: 10:00-22:00."
}, {
  "id": 135,
  "name": "Cordoba - Peatonal San Martin",
  "street_name": "San Martín",
  "street_number": "235",
  "street_between1": "Colón",
  "street_between2": "Lima",
  "city_id": 20002,
  "city_label": "Córdoba (Capital) , Córdoba",
  "zip_code": "X5000",
  "latitude": -31.413311531898938,
  "longitude": -64.18275276184,
  "open_time": "Lun-Vie: 09:00-20:00. Sáb: 09:00-16:00. Dom: Cerrado."
}, {
  "id": 136,
  "name": "Jose C. Paz",
  "street_name": "Av. Hipolito Yrigoyen",
  "street_number": "1777",
  "street_between1": "Fray Guillermo Butler",
  "street_between2": "Federico Lacroze",
  "city_id": 20069,
  "city_label": "José C. Paz , Buenos Aires",
  "zip_code": "B1665",
  "latitude": -34.51921282041083,
  "longitude": -58.752679126063505,
  "open_time": "Lun-Vie: 09:00-20:30. Sáb: 09:30-20:30. Dom: Cerrado."
}, {
  "id": 139,
  "name": "Moreno",
  "street_name": "Bartolome Mitre",
  "street_number": "2747",
  "street_between1": "Manuel Belgrano",
  "street_between2": "España",
  "city_id": 20035,
  "city_label": "Moreno , Buenos Aires",
  "zip_code": "B1744",
  "latitude": -34.649255623042485,
  "longitude": -58.78924357770494,
  "open_time": "Lun-Vie: 09:00-20:30. Sáb: 09:30-20:30. Dom: Cerrado."
}, {
  "id": 140,
  "name": "Portal Canning Shopping Mixta",
  "street_name": "Av. Mariano Castex",
  "street_number": "870",
  "street_between2": "Av. P. Dreyer",
  "city_id": 20323,
  "city_label": "Canning (Esteban Echeverría) , Buenos Aires",
  "zip_code": "B1804",
  "latitude": -34.85389647006202,
  "longitude": -58.5030172329344,
  "open_time": "Lun-Dom: 10:00-21:00."
}, {
  "id": 141,
  "name": "Rafaela",
  "street_name": "Saavedra",
  "street_number": "40",
  "street_between1": "Alvear",
  "street_between2": "Belgrano",
  "city_id": 20085,
  "city_label": "Rafaela (Castellanos) , Santa Fé",
  "zip_code": "S2300",
  "latitude": -31.253675483763175,
  "longitude": -61.48945812370379,
  "open_time": "Lun-Sáb: 08:30-12:30 16:00-20:30. Dom: Cerrado."
}, {
  "id": 142,
  "name": "Bariloche",
  "street_name": "Clemente Onelli",
  "street_number": "653",
  "street_between1": "Tiscornia",
  "street_between2": "Santiago Albarracín",
  "city_id": 20074,
  "city_label": "San Carlos de Bariloche (Bariloche) , Río Negro",
  "zip_code": "R8400",
  "latitude": -41.139685743120815,
  "longitude": -71.29791575688631,
  "open_time": "Lun-Sáb: 09:00-21:00. Dom: Cerrado."
}, {
  "id": 150,
  "name": "DOT Baires Shopping Mixta",
  "street_name": "Av. Melián",
  "street_number": "4880",
  "street_between1": "Pico",
  "street_between2": "Vedia",
  "city_id": 20000,
  "city_label": "Ciudad de Buenos Aires",
  "zip_code": "C1430",
  "latitude": -34.545174130530285,
  "longitude": -58.48747421613504,
  "open_time": "Lun-Dom: 10:00-22:00."
}, {
  "id": 151,
  "name": "Portal Trelew Shopping",
  "street_name": "Av. Hipólito Yrigoyen",
  "street_number": "",
  "street_between1": "",
  "street_between2": "",
  "city_id": 20252,
  "city_label": "Rawson , Chubut",
  "zip_code": "U9103",
  "latitude": -43.270520100606205,
  "longitude": -65.27987029495075,
  "open_time": "Lun-Dom: 10:00-22:00."
}, {
  "id": 152,
  "name": "Depósito San Luis",
  "street_name": "Av. Julio A. Roca",
  "street_number": "1706",
  "street_between1": "Luján Norte",
  "street_between2": "Tacuarí Sur",
  "city_id": 20033,
  "city_label": "San Luis (Capital) , San Luis",
  "zip_code": "D5700",
  "latitude": -33.314651072981164,
  "longitude": -66.34484355976618,
  "open_time": "Lun-Sáb: 08:30-13:00 17:00-19:00. Dom: Cerrado."
}, {
  "id": 155,
  "name": "San Rafael Mendoza",
  "street_name": "Av. Hipólito Yrigoyen",
  "street_number": "50",
  "street_between1": "Bartolomé Mitre",
  "street_between2": "Avellaneda",
  "city_id": 20083,
  "city_label": "San Rafael , Mendoza",
  "zip_code": "M5600",
  "latitude": -34.61598262844005,
  "longitude": -68.33054605635839,
  "open_time": "Lun-Vie: 09:00-13:00 17:00-21:00. Sáb: 09:00-21:00. Dom: Cerrado."
}, {
  "id": 156,
  "name": "Villa Mercedes - San Luis",
  "street_name": "Pedernera",
  "street_number": "387",
  "street_between1": "Buenos Aires",
  "street_between2": "Pescadores",
  "city_id": 20110,
  "city_label": "Villa Mercedes (General Pedernera) , San Luis",
  "zip_code": "D5730",
  "latitude": -33.68571599769305,
  "longitude": -65.46612631105528,
  "open_time": "Lun-Vie: 08:30-13:00 17:00-21:00. Sáb: 09:00-13:00 17:00-21:00. Dom: Cerrado."
}, {
  "id": 158,
  "name": "Cordoba Shopping Villa Cabrera ",
  "street_name": "José Antonio De Goyechea",
  "street_number": "2851",
  "street_between1": "Tuyutí",
  "street_between2": "Virgen De La Merced",
  "city_id": 20002,
  "city_label": "Córdoba (Capital) , Córdoba",
  "zip_code": "X5000",
  "latitude": -31.37980879402887,
  "longitude": -64.21403844102223,
  "open_time": "Lun-Dom: 10:00-22:00."
}, {
  "id": 159,
  "name": "Neuquen Paseo de la Patagonia",
  "street_name": "Antártida Argentina",
  "street_number": "1111",
  "street_between1": "",
  "street_between2": "",
  "city_id": 20012,
  "city_label": "Neuquén (Confluencia) , Neuquén",
  "zip_code": "Q8300",
  "latitude": -38.94719228458808,
  "longitude": -68.07478126179102,
  "open_time": "Lun-Dom: 09:00-22:00."
}, {
  "id": 162,
  "name": "Nordelta Centro Comercial",
  "street_name": "Av. De Los Lagos",
  "street_number": "7010",
  "city_id": 21265,
  "city_label": "Nordelta (Tigre) , Buenos Aires",
  "zip_code": "B1670",
  "latitude": -34.41184390153635,
  "longitude": -58.667983808285726,
  "open_time": "Lun-Jue: 10:00-21:00. Vie y Sáb: 10:00-22:00. Dom: 10:00-21:00."
}, {
  "id": 163,
  "name": "Rio Grande - Calle San Martin",
  "street_name": "Av. San Martín",
  "street_number": "553",
  "street_between1": "Bernardo Rivadavia",
  "street_between2": "Av. Manuel Belgrano",
  "city_id": 20172,
  "city_label": "Río Grande , Tierra del Fuego",
  "zip_code": "V9420",
  "latitude": -53.786259377455714,
  "longitude": -67.70115233919806,
  "open_time": "Lun-Sáb: 09:30-13:00 16:00-20:30. Dom: Cerrado."
}, {
  "id": 167,
  "name": "El Calafate",
  "street_name": "Calle 4000 Hermanos Vidal",
  "street_number": "166",
  "city_id": 20178,
  "city_label": "El Calafate (Lago Argentino) , Santa Cruz",
  "zip_code": "Z9405",
  "latitude": -50.346817950599736,
  "longitude": -72.26873997792642,
  "open_time": "Lun-Sáb: 10:00-13:00 16:00-21:00. Dom: Cerrado."
}, {
  "id": 168,
  "name": "Aeroparque ",
  "street_name": "Av. Rafael Obligado",
  "street_number": "",
  "street_between1": "Rafael Obligado",
  "street_between2": "A Estacionamiento Sur",
  "city_id": 20000,
  "city_label": "Ciudad de Buenos Aires",
  "zip_code": "C1000",
  "latitude": -34.55701041341649,
  "longitude": -58.411796402230216,
  "open_time": "Lun-Dom: 09:00-21:00."
}, {
  "id": 170,
  "name": "Posadas - Calle San Lorenzo",
  "street_name": "San Lorenzo",
  "street_number": "1846",
  "street_between1": "Bolivar",
  "street_between2": "Córdoba",
  "city_id": 20082,
  "city_label": "Posadas (Capital) , Misiones",
  "zip_code": "N3300",
  "latitude": -27.367084164224277,
  "longitude": -55.895635763552555,
  "open_time": "Lun-Vie: 08:30-12:30 16:30-21:00. Sáb: 08:30-12:30 17:00-21:00. Dom: Cerrado."
}, {
  "id": 172,
  "name": "Pacheco",
  "street_name": "Hipólito Yrigoyen",
  "street_number": "769",
  "street_between1": "Santiago Del Estero",
  "street_between2": "Mendoza",
  "city_id": 20115,
  "city_label": "General Pacheco (Tigre) , Buenos Aires",
  "zip_code": "B1617",
  "latitude": -34.45941754039469,
  "longitude": -58.632905189841914,
  "open_time": "Lun-Vie: 09:00-20:00. Sáb: 09:30-20:00. Dom: Cerrado."
}, {
  "id": 173,
  "name": "General Roca - Calle San Juan",
  "street_name": "San Juan",
  "street_number": "1425",
  "street_between1": "9 De Julio",
  "street_between2": "Tucumán",
  "city_id": 20141,
  "city_label": "General Roca , Río Negro",
  "zip_code": "R8332",
  "latitude": -39.027719724459345,
  "longitude": -67.58759263395898,
  "open_time": "Lun-Vie: 09:00-13:00 17:00-21:00. Sáb: 09:00-21:00. Dom: Cerrado."
}, {
  "id": 174,
  "name": "Venado Tuerto - Calle Casey",
  "street_name": "Av. Casey",
  "street_number": "799",
  "street_between1": "Maipú",
  "street_between2": "25 De Mayo",
  "city_id": 20191,
  "city_label": "Venado Tuerto (General López) , Santa Fé",
  "zip_code": "S2600",
  "latitude": -33.74633586328735,
  "longitude": -61.96808397031607,
  "open_time": "Lun-Vie: 08:30-12:30 16:30-20:30. Sáb: 08:30-13:00 16:30-20:30. Dom: Cerrado."
}, {
  "id": 176,
  "name": "San Justo Shopping",
  "street_name": "Av. Brig. Gral. Juan M. De Rosas",
  "street_number": "3910",
  "street_between1": "Sarandi",
  "street_between2": "Paraguay",
  "city_id": 20021,
  "city_label": "San Justo (La Matanza) , Buenos Aires",
  "zip_code": "B1754",
  "latitude": -34.68417828873074,
  "longitude": -58.556877029639146,
  "open_time": "Lun-Dom: 10:00-22:00."
}, {
  "id": 181,
  "name": "Ushuaia Paseo del Fuego",
  "street_name": "Av. Perito Moreno",
  "street_number": "1550",
  "street_between1": "Quintana",
  "street_between2": "Vito Dumas",
  "city_id": 20146,
  "city_label": "Ushuaia , Tierra del Fuego",
  "zip_code": "V9410",
  "latitude": -54.79821770261305,
  "longitude": -68.27937742862896,
  "open_time": "Lun-Dom: 10:00-22:00."
}, {
  "id": 187,
  "name": "Santa Rosa",
  "street_name": "Av. Ameghino",
  "street_number": "1250",
  "street_between1": "C. Valerga",
  "street_between2": "Dr. José Luro",
  "city_id": 20210,
  "city_label": "Santa Rosa (Capital) , La Pampa",
  "zip_code": "L6300",
  "latitude": -36.632429930852,
  "longitude": -64.29660352067496,
  "open_time": "Lun-Sáb: 09:00-13:00 16:30-20:30. Dom: Cerrado."
}, {
  "id": 191,
  "name": "Berazategui",
  "street_name": "Pres. Juan D. Peron (14)",
  "street_number": "4775",
  "street_between1": "25 De Mayo (147)",
  "street_between2": "Sarmiento (148)",
  "city_id": 20032,
  "city_label": "Berazategui , Buenos Aires",
  "zip_code": "B1884",
  "latitude": -34.76190472035197,
  "longitude": -58.209648788243435,
  "open_time": "Lun-Vie: 09:00-20:30. Sáb: 09:30-20:30. Dom: Cerrado."
}, {
  "id": 194,
  "name": "Caleta Olivia",
  "street_name": "Manuel Belgrano",
  "street_number": "515",
  "street_between1": "13 De Diciembre",
  "street_between2": "M. J. Estrada",
  "city_id": 20138,
  "city_label": "Caleta Olivia (Deseado) , Santa Cruz",
  "zip_code": "Z9011",
  "latitude": -46.44429627958735,
  "longitude": -67.52863419952456,
  "open_time": "Lun-Vie: 09:00-13:00 16:00-21:00. Sáb: 09:00-21:00. Dom: Cerrado."
}, {
  "id": 198,
  "name": "Villa Maria",
  "street_name": "San Martín",
  "street_number": "121",
  "street_between1": "Corrientes",
  "street_between2": "Entre Ríos",
  "city_id": 20246,
  "city_label": "Villa María (General San Martín) , Córdoba",
  "zip_code": "X5900",
  "latitude": -32.412346679063674,
  "longitude": -63.242434212806224,
  "open_time": "Lun-Sáb: 08:30-12:30 17:00-21:00. Dom: Cerrado."
}, {
  "id": 200,
  "name": "Villa Carlos Paz ",
  "street_name": "Juan Bautista Alberdi",
  "street_number": "37",
  "street_between1": "Caseros",
  "street_between2": "Alvear",
  "city_id": 20242,
  "city_label": "Villa Carlos Paz (Punilla) , Córdoba",
  "zip_code": "X5152",
  "latitude": -31.42010522985033,
  "longitude": -64.49648941024817,
  "open_time": "Lun-Vie: 08:00-13:00 16:30-19:30. Sáb: 09:00-13:30. Dom: Cerrado."
}, {
  "id": 201,
  "name": "Mendoza Shopping Palmares",
  "street_name": "Av. Acceso Oeste",
  "street_number": "2650",
  "city_id": 20782,
  "city_label": "Gobernador Benegas (Godoy Cruz) , Mendoza",
  "zip_code": "M5501",
  "latitude": -32.94226924230232,
  "longitude": -68.85030914442595,
  "open_time": "Lun-Dom: 10:00-22:00."
}, {
  "id": 202,
  "name": "Rincon de los Sauces",
  "street_name": "Av.Manuel Belgrano",
  "street_number": "1419",
  "city_id": 20190,
  "city_label": "Rincón De Los Sauces (Pehuenches) , Neuquén",
  "zip_code": "Q8319",
  "latitude": -37.3947622861516,
  "longitude": -68.92170511643135,
  "open_time": "Lun-Sáb: 09:30-13:00 17:00-22:00. Dom: Cerrado."
}, {
  "id": 203,
  "name": "Catamarca",
  "street_name": "Rivadavia",
  "street_number": "920",
  "street_between1": "Mota Botello",
  "street_between2": "Mate De Luna",
  "city_id": 20344,
  "city_label": "San Fernando del Valle de Catamarca (Capital) , Catamarca",
  "zip_code": "K4700",
  "latitude": -28.472310857868937,
  "longitude": -65.7780422195011,
  "open_time": "Lun-Vie: 08:30-12:30 17:30-21:30. Sáb: 09:00-13:00 17:30-21:30. Dom: Cerrado."
}, {
  "id": 206,
  "name": "San Fernando",
  "street_name": "Constitucion",
  "street_number": "345",
  "street_between1": "Junin",
  "street_between2": "Alvear",
  "city_id": 20096,
  "city_label": "San Fernando , Buenos Aires",
  "zip_code": "B1646",
  "latitude": -34.43666375725947,
  "longitude": -58.56252774689802,
  "open_time": "Lun-Vie: 09:00-20:00. Sáb: 09:30-20:00. Dom: Cerrado."
}, {
  "id": 208,
  "name": "La Rioja - Calle 25 de Mayo",
  "street_name": "25 De Mayo",
  "street_number": "40",
  "street_between1": "Buenos Aires",
  "street_between2": "B. Pelagio Luna",
  "city_id": 20048,
  "city_label": "La Rioja (Capital) , La Rioja",
  "zip_code": "F5300",
  "latitude": -29.412967947450095,
  "longitude": -66.8566344808313,
  "open_time": "Lun-Vie: 08:30-12:30 18:00-22:00. Sáb: 09:00-13:00 18:00-22:00. Dom: Cerrado."
}, {
  "id": 210,
  "name": "Salta Portal Shopping",
  "street_name": "20 De Febrero",
  "street_number": "1437",
  "street_between1": "",
  "street_between2": "",
  "city_id": 20007,
  "city_label": "Salta (Capital) , Salta",
  "zip_code": "A4400",
  "latitude": -24.771851800580652,
  "longitude": -65.41209679722225,
  "open_time": "Lun-Dom: 10:00-22:00."
}, {
  "id": 213,
  "name": "Formosa",
  "street_name": "Moreno",
  "street_number": "751",
  "street_between1": "España",
  "street_between2": "25 De Mayo",
  "city_id": 20211,
  "city_label": "Formosa , Formosa",
  "zip_code": "P3600",
  "latitude": -26.182392084045336,
  "longitude": -58.16777539817511,
  "open_time": "Lun-Vie: 08:30-12:30 16:30-20:30. Sáb: 09:00-13:00 17:00-21:00. Dom: Cerrado."
}, {
  "id": 214,
  "name": "Soleil Shopping",
  "street_name": "Bernardo De Irigoyen",
  "street_number": "2647",
  "street_between1": "Gurruchaga",
  "street_between2": "Buenos Aires",
  "city_id": 20070,
  "city_label": "Boulogne Sur Mer (San Isidro) , Buenos Aires",
  "zip_code": "B1609",
  "latitude": -34.49104926793531,
  "longitude": -58.58851560894856,
  "open_time": "Lun-Dom: 10:00-22:00."
}, {
  "id": 218,
  "name": "La Plata - Calle 12",
  "street_name": "Calle 12",
  "street_number": "1183",
  "street_between1": "Calle 56",
  "street_between2": "Calle 57",
  "city_id": 20008,
  "city_label": "La Plata , Buenos Aires",
  "zip_code": "B1900",
  "latitude": -34.923072,
  "longitude": -57.950179,
  "open_time": "Lun-Vie: 09:00-20:30. Sáb: 09:30-20:30. Dom: Cerrado."
}, {
  "id": 221,
  "name": "Tortugas Open Mall",
  "street_name": "Av. De Los Constituyentes",
  "street_number": "3163",
  "street_between1": "26 De Julio",
  "street_between2": "17 De Octubre",
  "city_id": 21801,
  "city_label": "El Triángulo (Malvinas Argentinas) , Buenos Aires",
  "zip_code": "B7500",
  "latitude": -34.45258508246403,
  "longitude": -58.729613463570594,
  "open_time": "Lun-Dom: 10:00-22:00."
}, {
  "id": 223,
  "name": "General Pico",
  "street_name": "Calle 15",
  "street_number": "968",
  "street_between1": "Calle 18",
  "street_between2": "Calle 20",
  "city_id": 20229,
  "city_label": "General Pico (Maracó) , La Pampa",
  "zip_code": "L6360",
  "latitude": -35.65963881631398,
  "longitude": -63.75379704876487,
  "open_time": "Lun-Vie: 08:30-12:30 16:30-20:30. Sáb: 08:30-13:00 17:00-21:00. Dom: Cerrado."
}, {
  "id": 224,
  "name": "Rio Grande - Calle Fagnano",
  "street_name": "Monseñor Fagnano",
  "street_number": "578",
  "street_between1": "A. Laserre",
  "street_between2": "Leandro Rosales",
  "city_id": 20172,
  "city_label": "Río Grande , Tierra del Fuego",
  "zip_code": "V9420",
  "latitude": -53.78623581308449,
  "longitude": -67.69733727469381,
  "open_time": "Lun-Sáb: 09:30-13:00 16:00-20:30. Dom: Cerrado."
}, {
  "id": 225,
  "name": "Venado Tuerto - Calle Belgrano",
  "street_name": "Belgrano",
  "street_number": "257",
  "street_between1": "Iturraspe",
  "street_between2": "Pellegrini",
  "city_id": 20191,
  "city_label": "Venado Tuerto (General López) , Santa Fé",
  "zip_code": "S2600",
  "latitude": -33.75029661612752,
  "longitude": -61.963501877599725,
  "open_time": "Lun-Vie: 08:30-12:30 16:30-20:30. Sáb: 08:30-13:00 16:30-20:30. Dom: Cerrado."
}, {
  "id": 228,
  "name": "General Roca - Calle Tucuman",
  "street_name": "Tucumán",
  "street_number": "570",
  "street_between1": "Gral. Manuel Belgrano",
  "street_between2": "Italia",
  "city_id": 20141,
  "city_label": "General Roca , Río Negro",
  "zip_code": "R8332",
  "latitude": -39.02881980782412,
  "longitude": -67.57266720337763,
  "open_time": "Lun-Sáb: 09:00-13:00 17:00-21:00. Dom: Cerrado."
}, {
  "id": 232,
  "name": "Añelo ",
  "street_name": "Av 1",
  "street_between1": "Calle 17",
  "street_between2": "Calle 18",
  "city_id": 21172,
  "city_label": "San Patricio Del Chañar (Añelo) , Neuquén",
  "zip_code": "Q8305",
  "latitude": -38.35263128294918,
  "longitude": -68.78411687043969,
  "open_time": "Lun-Vie: 10:00-13:00 16:00-20:30. Sáb: 10:00-13:00. Dom: Cerrado."
}, {
  "id": 233,
  "name": "Terrazas de Mayo Shopping",
  "street_name": "Ruta 202 Interseccion Ruta 8",
  "city_id": 20013,
  "city_label": "San Miguel , Buenos Aires",
  "zip_code": "B1663",
  "latitude": -34.530974,
  "longitude": -58.699525,
  "open_time": "Lun-Dom: 10:00-22:00."
}, {
  "id": 235,
  "name": "Cipolletti ",
  "street_name": "Brentana",
  "street_number": "220",
  "street_between1": "Gral. Roca",
  "street_between2": "Pres. Yrigoyen",
  "city_id": 20128,
  "city_label": "Cipolletti (General Roca) , Río Negro",
  "zip_code": "R8324",
  "latitude": -38.94030183638715,
  "longitude": -67.98956542515447,
  "open_time": "Lun-Sáb: 09:00-13:00 17:00-21:00. Dom: Cerrado."
}, {
  "id": 237,
  "name": "Zarate",
  "street_name": "Justa Lima De Atucha",
  "street_number": "337",
  "street_between1": "Independencia",
  "street_between2": "R. Noya",
  "city_id": 20114,
  "city_label": "Zárate , Buenos Aires",
  "zip_code": "B2800",
  "latitude": -34.09831457541752,
  "longitude": -59.02301424468789,
  "open_time": "Lun-Sáb: 09:00-13:00 16:30-20:30. Dom: Cerrado."
}, {
  "id": 238,
  "name": "Alto Comahue ",
  "street_name": "Dr.Ramón",
  "street_between2": "Ruta 7",
  "city_id": 20012,
  "city_label": "Neuquén (Confluencia) , Neuquén",
  "zip_code": "Q8300",
  "latitude": -38.941568830884194,
  "longitude": -68.06463937891861,
  "open_time": "Lun-Dom: 10:00-22:00."
}, {
  "id": 239,
  "name": "Alto Rosario Shopping",
  "street_name": "Junín",
  "street_number": "501",
  "street_between1": "Falucho Bis",
  "street_between2": "Echeverría Bis",
  "city_id": 20001,
  "city_label": "Rosario , Santa Fé",
  "zip_code": "S2000",
  "latitude": -32.926645591490406,
  "longitude": -60.670711144564564,
  "open_time": "Lun-Dom: 10:00-22:00."
}, {
  "id": 241,
  "name": "Posadas Hiper Libertad",
  "street_name": "Av. Luis Quaranta",
  "street_number": "3598",
  "street_between1": "Av. Santa Catalina",
  "street_between2": "Av. Tomás Guido",
  "city_id": 20082,
  "city_label": "Posadas (Capital) , Misiones",
  "zip_code": "N3300",
  "latitude": -27.402559745118307,
  "longitude": -55.916626191791934,
  "open_time": "Lun-Dom: 09:00-22:00."
}, {
  "id": 247,
  "name": "Goya Centro",
  "street_name": "Loza",
  "street_number": "491",
  "street_between1": "José E. Gómez",
  "street_between2": "Colón",
  "city_id": 20243,
  "city_label": "Goya , Corrientes",
  "zip_code": "W3450",
  "latitude": -29.143659080698367,
  "longitude": -59.26429237199192,
  "open_time": "Lun-Vie: 08:30-12:30 16:30-21:00. Sáb: 08:30-12:30 17:00-21:00. Dom: Cerrado."
}, {
  "id": 250,
  "name": "Ushuaia - Calle Kuanip",
  "street_name": "Kuanip",
  "street_number": "773",
  "street_between1": "Cjal. Rubinos Del Río",
  "street_between2": "Tte. Gral. Juan D. Perón",
  "city_id": 20146,
  "city_label": "Ushuaia , Tierra del Fuego",
  "zip_code": "V9410",
  "latitude": -54.81781928290378,
  "longitude": -68.33632545654413,
  "open_time": "Lun-Sáb: 10:00-13:00 16:00-21:00. Dom: Cerrado."
}, {
  "id": 251,
  "name": "Mar del Plata Shopping",
  "street_name": "Sarmiento",
  "street_number": "2685",
  "street_between1": "Alberti",
  "street_between2": "Rawson",
  "city_id": 20003,
  "city_label": "Mar del Plata (General Pueyrredón) , Buenos Aires",
  "zip_code": "B7600",
  "latitude": -38.012416882054644,
  "longitude": -57.5433248332079,
  "open_time": "Lun-Jue: 10:00-21:00. Vie y Sáb: 10:00-22:00. Dom: 10:00-21:00."
}, {
  "id": 252,
  "name": "Poeta Lugones Hiper Libertad",
  "street_name": "César Duayen",
  "street_number": "3200",
  "street_between1": "Vicente Fatone",
  "street_between2": "Carlos María Ocanto",
  "city_id": 20002,
  "city_label": "Córdoba (Capital) , Córdoba",
  "zip_code": "X5000",
  "latitude": -31.363106341869603,
  "longitude": -64.2165732604028,
  "open_time": "Lun-Dom: 09:00-22:00."
}, {
  "id": 253,
  "name": "Ushuaia - Calle San Martin",
  "street_name": "San Martín",
  "street_number": "1255",
  "street_between1": "Belgrano",
  "street_between2": "Sarmiento",
  "city_id": 20146,
  "city_label": "Ushuaia , Tierra del Fuego",
  "zip_code": "V9410",
  "latitude": -54.808972609127395,
  "longitude": -68.31525168134576,
  "open_time": "Lun-Sáb: 10:00-13:00 16:00-21:00. Dom: Cerrado."
}, {
  "id": 254,
  "name": "Tandil ",
  "street_name": "Gral. Martín Rodriguez",
  "street_number": "562",
  "street_between1": "Gral. Pinto",
  "street_between2": "Gral. José San Martín",
  "city_id": 20248,
  "city_label": "Tandil , Buenos Aires",
  "zip_code": "B7000",
  "latitude": -37.326826945895654,
  "longitude": -59.13654361690646,
  "open_time": "Lun-Sáb: 09:00-13:00 17:00-21:00. Dom: Cerrado."
}, {
  "id": 255,
  "name": "Cordoba San Francisco",
  "street_name": "Blvd. 25 De Mayo",
  "street_number": "1840",
  "street_between1": "Alberdi",
  "street_between2": "Mitre",
  "city_id": 20391,
  "city_label": "San Francisco (San Justo) , Córdoba",
  "zip_code": "X2400",
  "latitude": -31.429201173383028,
  "longitude": -62.08668023592536,
  "open_time": "Lun-Sáb: 08:30-12:30 16:00-20:00. Dom: Cerrado."
}, {
  "id": 256,
  "name": "Concepcion de Tucuman",
  "street_name": "Av. San Martin",
  "street_number": "1206",
  "city_id": 20261,
  "city_label": "Concepción (Chicligasta) , Tucumán",
  "zip_code": "T4146",
  "latitude": -27.346110475458335,
  "longitude": -65.58947818957006,
  "open_time": "Lun-Sáb: 08:30-12:30 17:00-21:00. Dom: Cerrado."
}, {
  "id": 257,
  "name": "Mendoza Ciudad San Martín",
  "street_name": "9 De Julio",
  "street_number": "154",
  "street_between1": "Alvear",
  "street_between2": "Belgrano",
  "city_id": 20376,
  "city_label": "San Martín , Mendoza",
  "zip_code": "M5570",
  "latitude": -33.08126753686236,
  "longitude": -68.47200453355177,
  "open_time": "Lun-Sáb: 09:00-13:00 17:00-21:00. Dom: Cerrado."
}, {
  "id": 259,
  "name": "Bernal",
  "street_name": "9 De Julio (127)",
  "street_number": "24",
  "street_between1": "Av. Gra. San Martin (140)",
  "street_between2": "Belgrano (142)",
  "city_id": 20068,
  "city_label": "Bernal (Quilmes) , Buenos Aires",
  "zip_code": "B1876",
  "latitude": -34.71039847811494,
  "longitude": -58.280589617627186,
  "open_time": "Lun-Vie: 09:00-20:30. Sáb: 09:30-20:30. Dom: Cerrado."
}, {
  "id": 260,
  "name": "Banfield ",
  "street_name": "Maipú",
  "street_number": "357",
  "street_between1": "Belgrano",
  "street_between2": "Pueyrredon",
  "city_id": 20006,
  "city_label": "Banfield (Lomas de Zamora) , Buenos Aires",
  "zip_code": "B1828",
  "latitude": -34.74347015112078,
  "longitude": -58.390960045115825,
  "open_time": "Lun-Vie: 09:00-20:30. Sáb: 09:30-20:30. Dom: Cerrado."
}, {
  "id": 261,
  "name": "Villa Crespo",
  "street_name": "Av. Corrientes",
  "street_number": "5258",
  "street_between1": "Malabia",
  "street_between2": "Av. Raúl Scalabrini Ortiz",
  "city_id": 20000,
  "city_label": "Ciudad de Buenos Aires",
  "zip_code": "C1414",
  "latitude": -34.59952622843608,
  "longitude": -58.439326738018565,
  "open_time": "Lun-Vie: 09:00-20:00. Sáb: 09:30-20:00. Dom: Cerrado."
}, {
  "id": 263,
  "name": "Norcenter ",
  "street_name": "Esteban Echeverria",
  "street_number": "3750",
  "street_between1": "Cap. Bermudez (68)",
  "city_id": 20105,
  "city_label": "Munro (Vicente López) , Buenos Aires",
  "zip_code": "B1605",
  "latitude": -34.51438053659228,
  "longitude": -58.52228272228368,
  "open_time": "Lun-Vie: 11:00-21:00. Sáb: 10:00-21:00. Dom: 12:00-21:00."
}, {
  "id": 265,
  "name": "Cañada de Gomez",
  "street_name": "Lavalle",
  "street_number": "1034",
  "street_between1": "San Martin",
  "street_between2": "Moreno",
  "city_id": 20373,
  "city_label": "Cañada De Gómez (Iriondo) , Santa Fé",
  "zip_code": "S2500",
  "latitude": -32.8198255390266,
  "longitude": -61.39767530563056,
  "open_time": "Lun-Sáb: 09:00-12:30 16:30-20:30. Dom: Cerrado."
}, {
  "id": 266,
  "name": "Resistencia Hiper Libertad",
  "street_name": "Ruta Nicolas Avellaneda Km 14",
  "city_id": 20020,
  "city_label": "Resistencia (San Fernando) , Chaco",
  "zip_code": "H3500",
  "latitude": -27.41302602874638,
  "longitude": -58.96568207435466,
  "open_time": "Lun-Dom: 09:00-22:00."
}, {
  "id": 267,
  "name": "Eldorado",
  "street_between1": "Colón",
  "street_between2": "Cornelio Saavedra",
  "city_id": 20922,
  "city_label": "Eldorado , Misiones",
  "zip_code": "N3380",
  "latitude": -26.408329918788493,
  "longitude": -54.60335555486037,
  "open_time": "Lun-Sáb: 08:30-12:30 16:30-20:30. Dom: Cerrado."
}, {
  "id": 271,
  "name": "Rosario Hiper Libertad",
  "street_name": "Boulevard Oroño",
  "street_number": "6000",
  "street_between1": "Ombú",
  "city_id": 20001,
  "city_label": "Rosario , Santa Fé",
  "zip_code": "S2000",
  "latitude": -33.009015614996564,
  "longitude": -60.66504409401801,
  "open_time": "Lun-Sáb: 10:00-22:00. Dom: 11:00-22:00."
}, {
  "id": 272,
  "name": "Gualeguaychu Mixta",
  "street_name": "25 De Mayo",
  "street_number": "952",
  "street_between1": "España",
  "street_between2": "Chacabuco",
  "city_id": 20322,
  "city_label": "Gualeguaychú , Entre Ríos",
  "zip_code": "E2820",
  "latitude": -33.009642765592126,
  "longitude": -58.517860539731494,
  "open_time": "Lun-Vie: 08:30-12:30 17:00-21:00. Sáb: 09:00-13:00 16:30-20:30. Dom: Cerrado."
}, {
  "id": 274,
  "name": "Saenz Peña Mixta",
  "street_name": "Calle 14",
  "street_number": "0",
  "street_between1": "Calle 41",
  "street_between2": "Calle 43",
  "city_id": 27644,
  "city_label": "Presidente Roque Sáenz Peña (Comandante Fernández) , Chaco",
  "zip_code": "H3700",
  "latitude": -26.78522910117981,
  "longitude": -60.43923019538367,
  "open_time": "Lun-Sáb: 09:00-13:00 17:00-21:00. Dom: Cerrado."
}, {
  "id": 2040,
  "name": "General Rodriguez Mixta",
  "street_name": "Pedro Whelan",
  "street_number": "141",
  "street_between1": "C. Pellegrini",
  "street_between2": "2 De Abril",
  "city_id": 20192,
  "city_label": "General Rodríguez , Buenos Aires",
  "zip_code": "B1748",
  "latitude": -34.607540512362604,
  "longitude": -58.95242745893281,
  "open_time": "Lun-Vie: 08:30-12:30 16:30-20:00. Sáb: 09:30-12:30 16:30-20:00. Dom: Cerrado."
}]
